[
    {
        "id": 1, 
        "name": "Slim's", 
        "address": "333 11th Street", 
        "latitude": 37.77151107788086, 
        "longitude": -122.41327667236328, 
        "city": "San Francisco", 
        "state": "CA", 
        "zipcode": 94103, 
        "phone": "415-255-0333", 
        "url": "slimspresents.com"
    }, 
    {
        "id": 2, 
        "name": "Great American Music Hall", 
        "address": "859 O'Farrell Street", 
        "latitude": 37.784759521484375, 
        "longitude": -122.41883850097656, 
        "city": "San Francisco", 
        "state": "CA", 
        "zipcode": 94109, 
        "phone": "415-885-0750", 
        "url": "gamh.com"
    }, 
    {
        "id": 3, 
        "name": "The Hotel Utah Saloon", 
        "address": "500 4th Street", 
        "latitude": 37.77928924560547, 
        "longitude": -122.39813232421875, 
        "city": "San Francisco", 
        "state": "CA", 
        "zipcode": 94107, 
        "phone": "415-546-6300", 
        "url": "hotelutah.com"
    }, 
    {
        "id": 4, 
        "name": "Amnesia", 
        "address": "853 Valencia Street", 
        "latitude": 37.759281158447266, 
        "longitude": -122.42121887207031, 
        "city": "San Francisco", 
        "state": "CA", 
        "zipcode": 94110, 
        "phone": "415-970-0012", 
        "url": "amnesiathebar.com"
    }, 
    {
        "id": 5, 
        "name": "Revolution Cafe", 
        "address": "3248 22nd Street", 
        "latitude": 37.75553894042969, 
        "longitude": -122.41973114013672, 
        "city": "San Francisco", 
        "state": "CA", 
        "zipcode": 94110, 
        "phone": "415-642-0474", 
        "url": "revolutioncafesf.com"
    }, 
    {
        "id": 6, 
        "name": "Cafe Du Nord", 
        "address": "2170 Market Street", 
        "latitude": 37.76675033569336, 
        "longitude": -122.43049621582031, 
        "city": "San Francisco", 
        "state": "CA", 
        "zipcode": 94114, 
        "phone": "415-861-5016", 
        "url": "cafedunord.com"
    }, 
    {
        "id": 7, 
        "name": "Yoshi's SF", 
        "address": "1330 Fillmore Street", 
        "latitude": 37.78205871582031, 
        "longitude": -122.43224334716797, 
        "city": "San Francisco", 
        "state": "CA", 
        "zipcode": 94115, 
        "phone": "415-655-5600", 
        "url": "yoshis.com/sanfrancisco"
    }, 
    {
        "id": 8, 
        "name": "Boom Boom Room", 
        "address": "1601 Fillmore Street", 
        "latitude": 37.784610748291016, 
        "longitude": -122.43319702148438, 
        "city": "San Francisco", 
        "state": "CA", 
        "zipcode": 94115, 
        "phone": "415-673-8000", 
        "url": "boomboomblues.com"
    }, 
    {
        "id": 9, 
        "name": "The Chapel", 
        "address": "777 Valencia Street", 
        "latitude": 37.76055908203125, 
        "longitude": -122.42118835449219, 
        "city": "San Francisco", 
        "state": "CA", 
        "zipcode": 94110, 
        "phone": "415-551-5157", 
        "url": "thechapelsf.com"
    }, 
    {
        "id": 10, 
        "name": "Sub-Mission", 
        "address": "2183 Mission Street", 
        "latitude": 37.76210021972656, 
        "longitude": -122.41915130615234, 
        "city": "San Francisco", 
        "state": "CA", 
        "zipcode": 94110, 
        "phone": "415-255-7227", 
        "url": "sf-submission.com"
    }, 
    {
        "id": 11, 
        "name": "Brick & Mortar Music Hall", 
        "address": "1710 Mission Street", 
        "latitude": 37.769718170166016, 
        "longitude": -122.42037963867188, 
        "city": "San Francisco", 
        "state": "CA", 
        "zipcode": 94103, 
        "phone": "415-800-8782", 
        "url": "brickandmortarmusic.com"
    }, 
    {
        "id": 12, 
        "name": "Public Works", 
        "address": "161 Erie Street", 
        "latitude": 37.76890182495117, 
        "longitude": -122.41937255859375, 
        "city": "San Francisco", 
        "state": "CA", 
        "zipcode": 94103, 
        "phone": "415-779-6757", 
        "url": "publicsf.com"
    }, 
    {
        "id": 13, 
        "name": "Wish", 
        "address": "1539 Folsom Street", 
        "latitude": 37.77125930786133, 
        "longitude": -122.41441345214844, 
        "city": "San Francisco", 
        "state": "CA", 
        "zipcode": 94103, 
        "phone": "415-431-1661", 
        "url": "wishsf.com"
    }, 
    {
        "id": 14, 
        "name": "Holy Cow Nightclub", 
        "address": "1535 Folsom Street", 
        "latitude": 37.77138900756836, 
        "longitude": -122.41433715820312, 
        "city": "San Francisco", 
        "state": "CA", 
        "zipcode": 94103, 
        "phone": "415-621-6087", 
        "url": "theholycow.com"
    }, 
    {
        "id": 15, 
        "name": "Beatbox", 
        "address": "314 11th Street", 
        "latitude": 37.77145004272461, 
        "longitude": -122.4139404296875, 
        "city": "San Francisco", 
        "state": "CA", 
        "zipcode": 94103, 
        "phone": "415-500-2675", 
        "url": "beatboxsf.com"
    }, 
    {
        "id": 16, 
        "name": "Butter", 
        "address": "354 11th Street", 
        "latitude": 37.77103042602539, 
        "longitude": -122.4133529663086, 
        "city": "San Francisco", 
        "state": "CA", 
        "zipcode": 94103, 
        "phone": "415-863-5964", 
        "url": "smoothasbutter.com"
    }, 
    {
        "id": 17, 
        "name": "DNA Lounge", 
        "address": "375 11th Street", 
        "latitude": 37.771018981933594, 
        "longitude": -122.4127197265625, 
        "city": "San Francisco", 
        "state": "CA", 
        "zipcode": 94103, 
        "phone": "415-626-1409", 
        "url": "dnalounge.com"
    }, 
    {
        "id": 18, 
        "name": "Bruno's", 
        "address": "2389 Mission Street", 
        "latitude": 37.758941650390625, 
        "longitude": -122.41876983642578, 
        "city": "San Francisco", 
        "state": "CA", 
        "zipcode": 94110, 
        "phone": "415-643-5200", 
        "url": "brunosf.com"
    }, 
    {
        "id": 19, 
        "name": "Savanna Jazz", 
        "address": "2937 Mission Street", 
        "latitude": 37.750038146972656, 
        "longitude": -122.41789245605469, 
        "city": "San Francisco", 
        "state": "CA", 
        "zipcode": 94110, 
        "phone": "415-285-3369", 
        "url": "savanajazz.com"
    }, 
    {
        "id": 20, 
        "name": "El Rio", 
        "address": "3158 Mission Street", 
        "latitude": 37.74681091308594, 
        "longitude": -122.41947174072266, 
        "city": "San Francisco", 
        "state": "CA", 
        "zipcode": 94110, 
        "phone": "415-282-3325", 
        "url": "elriosf.com"
    }, 
    {
        "id": 21, 
        "name": "Blondies' Bar & No Grill", 
        "address": "540 Valencia Street", 
        "latitude": 37.764251708984375, 
        "longitude": -122.42185974121094, 
        "city": "San Francisco", 
        "state": "CA", 
        "zipcode": 94110, 
        "phone": "415-864-2419", 
        "url": "blondiesbarsf.com"
    }, 
    {
        "id": 22, 
        "name": "1015 Folsom", 
        "address": "1015 Folsom Street", 
        "latitude": 37.778099060058594, 
        "longitude": -122.40576171875, 
        "city": "San Francisco", 
        "state": "CA", 
        "zipcode": 94103, 
        "phone": "415-431-1200", 
        "url": "1015.com"
    }, 
    {
        "id": 23, 
        "name": "Cat Club", 
        "address": "1190 Folsom Street", 
        "latitude": 37.775390625, 
        "longitude": -122.40992736816406, 
        "city": "San Francisco", 
        "state": "CA", 
        "zipcode": 94103, 
        "phone": "415-703-8965", 
        "url": "sfcatclub.com"
    }, 
    {
        "id": 24, 
        "name": "Icon Ultra Lounge", 
        "address": "1192 Folsom Street", 
        "latitude": 37.77534866333008, 
        "longitude": -122.4100112915039, 
        "city": "San Francisco", 
        "state": "CA", 
        "zipcode": 94103, 
        "phone": "415-626-4800", 
        "url": "iconloungesf.comPui"
    }, 
    {
        "id": 25, 
        "name": "The Endup", 
        "address": "401 6th Street", 
        "latitude": 37.7772216796875, 
        "longitude": -122.40380096435547, 
        "city": "San Francisco", 
        "state": "CA", 
        "zipcode": 94708, 
        "phone": "415-896-1075", 
        "url": "theendup.com"
    }, 
    {
        "id": 26, 
        "name": "Ruby Skye", 
        "address": "420 Mason Street", 
        "latitude": 37.78759002685547, 
        "longitude": -122.4098129272461, 
        "city": "San Francisco", 
        "state": "CA", 
        "zipcode": 94102, 
        "phone": "415-693-0777", 
        "url": "rubyskye.com"
    }, 
    {
        "id": 27, 
        "name": "Raven Bar", 
        "address": "1151 Folsom Street", 
        "latitude": 37.775779724121094, 
        "longitude": -122.40888977050781, 
        "city": "San Francisco", 
        "state": "CA", 
        "zipcode": 94103, 
        "phone": "415-431-1151", 
        "url": "ravenbarsf.com"
    }, 
    {
        "id": 28, 
        "name": "Nob Hill Masonic Center", 
        "address": "1111 California Street", 
        "latitude": 37.79117965698242, 
        "longitude": -122.4129409790039, 
        "city": "San Francisco", 
        "state": "CA", 
        "zipcode": 94108, 
        "phone": "415-776-7457", 
        "url": "masonicauditorium.com"
    }, 
    {
        "id": 29, 
        "name": "The Independent", 
        "address": "628 Divisadero Street", 
        "latitude": 37.77553939819336, 
        "longitude": -122.43760681152344, 
        "city": "San Francisco", 
        "state": "CA", 
        "zipcode": 94117, 
        "phone": "415-771-1421", 
        "url": "theindependentsf.com"
    }, 
    {
        "id": 30, 
        "name": "SFJAZZ Center", 
        "address": "201 Franklin Street", 
        "latitude": 37.776329040527344, 
        "longitude": -122.42153930664062, 
        "city": "San Francisco", 
        "state": "CA", 
        "zipcode": 94102, 
        "phone": "866-920-5299", 
        "url": "sfjazz.org"
    }, 
    {
        "id": 31, 
        "name": "Orpheum Theatre", 
        "address": "1192 Market Street", 
        "latitude": 37.77925109863281, 
        "longitude": -122.4145736694336, 
        "city": "San Francisco", 
        "state": "CA", 
        "zipcode": 94102, 
        "phone": "888-746-1799", 
        "url": "shnsf.com"
    }, 
    {
        "id": 32, 
        "name": "The Warfield", 
        "address": "982 Market Street", 
        "latitude": 37.78266143798828, 
        "longitude": -122.4101791381836, 
        "city": "San Francisco", 
        "state": "CA", 
        "zipcode": 94102, 
        "phone": "415-345-0900", 
        "url": "thewarfieldtheatre.com"
    }, 
    {
        "id": 33, 
        "name": "Monarch", 
        "address": "101 6th Street", 
        "latitude": 37.78097152709961, 
        "longitude": -122.40840911865234, 
        "city": "San Francisco", 
        "state": "CA", 
        "zipcode": 94103, 
        "phone": "415-284-9774", 
        "url": "monarchsf.com"
    }, 
    {
        "id": 34, 
        "name": "Mighty", 
        "address": "119 Utah Street", 
        "latitude": 37.76747131347656, 
        "longitude": -122.4068832397461, 
        "city": "San Francisco", 
        "state": "CA", 
        "zipcode": 94103, 
        "phone": "415-762-0151", 
        "url": "mighty119.com"
    }, 
    {
        "id": 35, 
        "name": "Thee Parkside", 
        "address": "1600 17th Street", 
        "latitude": 37.76512145996094, 
        "longitude": -122.39990997314453, 
        "city": "San Francisco", 
        "state": "CA", 
        "zipcode": 94107, 
        "phone": "415-252-1330", 
        "url": "theeparkside.com"
    }, 
    {
        "id": 36, 
        "name": "Bottom of the Hill", 
        "address": "1233 17th Street", 
        "latitude": 37.765018463134766, 
        "longitude": -122.39643859863281, 
        "city": "San Francisco", 
        "state": "CA", 
        "zipcode": 94107, 
        "phone": "415-626-4455", 
        "url": "bottomofthehill.com"
    }, 
    {
        "id": 37, 
        "name": "Verdi Club", 
        "address": "2424 Mariposa Street", 
        "latitude": 37.763389587402344, 
        "longitude": -122.40792846679688, 
        "city": "San Francisco", 
        "state": "CA", 
        "zipcode": 94110, 
        "phone": "415-861-9199", 
        "url": "verdiclub.net"
    }, 
    {
        "id": 38, 
        "name": "Hemlock Tavern", 
        "address": "1131 Polk Street", 
        "latitude": 37.787391662597656, 
        "longitude": -122.42025756835938, 
        "city": "San Francisco", 
        "state": "CA", 
        "zipcode": 94109, 
        "phone": "415-923-0923", 
        "url": "hemlocktavern.com"
    }, 
    {
        "id": 39, 
        "name": "Rickshaw Stop", 
        "address": "155 Fell Street", 
        "latitude": 37.776119232177734, 
        "longitude": -122.42047882080078, 
        "city": "San Francisco", 
        "state": "CA", 
        "zipcode": 94102, 
        "phone": "415-861-2011", 
        "url": "rickshawstop.com"
    }, 
    {
        "id": 40, 
        "name": "Biscuits and Blues", 
        "address": "401 Mason Street", 
        "latitude": 37.78730010986328, 
        "longitude": -122.41014099121094, 
        "city": "San Francisco", 
        "state": "CA", 
        "zipcode": 94102, 
        "phone": "415-292-2583", 
        "url": "biscuitandblues.com"
    }, 
    {
        "id": 41, 
        "name": "Mezzanine", 
        "address": "444 Jessie Street", 
        "latitude": 37.78247833251953, 
        "longitude": -122.40807342529297, 
        "city": "San Francisco", 
        "state": "CA", 
        "zipcode": 94103, 
        "phone": "415-625-8880", 
        "url": "mezzaninesf.com"
    }, 
    {
        "id": 42, 
        "name": "Cafe Royale", 
        "address": "800 Post Street", 
        "latitude": 37.7876091003418, 
        "longitude": -122.41520690917969, 
        "city": "San Francisco", 
        "state": "CA", 
        "zipcode": 94109, 
        "phone": "415-441-4099", 
        "url": "caferoyale-sf.com"
    }, 
    {
        "id": 43, 
        "name": "Swig", 
        "address": "561 Geary Street", 
        "latitude": 37.78678894042969, 
        "longitude": -122.41252136230469, 
        "city": "San Francisco", 
        "state": "CA", 
        "zipcode": 94102, 
        "phone": "415-931-7292", 
        "url": "swigbar.com"
    }, 
    {
        "id": 44, 
        "name": "Red Devil Lounge", 
        "address": "1695 Polk Street", 
        "latitude": 37.79222869873047, 
        "longitude": -122.42122650146484, 
        "city": "San Francisco", 
        "state": "CA", 
        "zipcode": 94109, 
        "phone": "415-921-1695", 
        "url": "reddevillounge.com"
    }, 
    {
        "id": 45, 
        "name": "The Beauty Bar", 
        "address": "2299 Mission Street", 
        "latitude": 37.760250091552734, 
        "longitude": -122.41922760009766, 
        "city": "San Francisco", 
        "state": "CA", 
        "zipcode": 94110, 
        "phone": "415-285-0323", 
        "url": "thebeautybar.com/san_francisco"
    }, 
    {
        "id": 46, 
        "name": "Little Baobab", 
        "address": "3376 19th Street", 
        "latitude": 37.76028060913086, 
        "longitude": -122.41883850097656, 
        "city": "San Francisco", 
        "state": "CA", 
        "zipcode": 94110, 
        "phone": "415-643-3558", 
        "url": "www.bissapbaobab.com"
    }, 
    {
        "id": 47, 
        "name": "Benders Bar", 
        "address": "806 South Van Ness Avenue", 
        "latitude": 37.760169982910156, 
        "longitude": -122.4172592163086, 
        "city": "San Francisco", 
        "state": "CA", 
        "zipcode": 94110, 
        "phone": "415-824-1800", 
        "url": "bendersbar.com"
    }, 
    {
        "id": 48, 
        "name": "Lands End Stage", 
        "address": "1232 John F Kennedy Dr", 
        "latitude": 37.7675895690918, 
        "longitude": -122.49494934082031, 
        "city": "San Francisco", 
        "state": "CA", 
        "zipcode": 94121, 
        "phone": "415-831-2700", 
        "url": "www.sfoutsidelands.com"
    }, 
    {
        "id": 49, 
        "name": "Sutro Stage", 
        "address": "1004 John F Kennedy Dr", 
        "latitude": 37.76993942260742, 
        "longitude": -122.49307250976562, 
        "city": "San Francisco", 
        "state": "CA", 
        "zipcode": 94121, 
        "phone": "415-831-2700", 
        "url": "www.sfoutsidelands.com"
    }, 
    {
        "id": 50, 
        "name": "Twin Peaks Stage", 
        "address": "800 John F Kennedy Dr", 
        "latitude": 37.76972579956055, 
        "longitude": -122.48307037353516, 
        "city": "San Francisco", 
        "state": "CA", 
        "zipcode": 94121, 
        "phone": "415-831-2700", 
        "url": "www.sfoutsidelands.com"
    }, 
    {
        "id": 51, 
        "name": "Panhandle Stage", 
        "address": "898 John F Kennedy Dr", 
        "latitude": 37.76991271972656, 
        "longitude": -122.48500061035156, 
        "city": "San Francisco", 
        "state": "CA", 
        "zipcode": 94121, 
        "phone": "415-831-2700", 
        "url": "www.sfoutsidelands.com"
    }, 
    {
        "id": 52, 
        "name": "The House by Heneiken", 
        "address": "Polo Field, Golden Gate Park", 
        "latitude": 37.76793670654297, 
        "longitude": -122.49158477783203, 
        "city": "San Francisco", 
        "state": "CA", 
        "zipcode": 94121, 
        "phone": "415-831-2700", 
        "url": "www.sfoutsidelands.com"
    }, 
    {
        "id": 53, 
        "name": "The Barbary", 
        "address": "South of Polo Field, Golden Gate Park", 
        "latitude": 37.76707077026367, 
        "longitude": -122.49126434326172, 
        "city": "San Francisco", 
        "state": "CA", 
        "zipcode": 94121, 
        "phone": "415-831-2700", 
        "url": "www.sfoutsidelands.com"
    }, 
    {
        "id": 54, 
        "name": "Gastro Magic", 
        "address": "East of Polo Field, Golden Gate Park", 
        "latitude": 37.76896667480469, 
        "longitude": -122.48958587646484, 
        "city": "San Francisco", 
        "state": "CA", 
        "zipcode": 94121, 
        "phone": "415-831-2700", 
        "url": "www.sfoutsidelands.com"
    }, 
    {
        "id": 55, 
        "name": "Presidio Stage", 
        "address": "900 John F Kennedy Dr", 
        "latitude": 37.770633697509766, 
        "longitude": -122.48822784423828, 
        "city": "San Francisco", 
        "state": "CA", 
        "zipcode": 94121, 
        "phone": "415-831-2700", 
        "url": "www.sfoutsidelands.com"
    }, 
    {
        "id": 56, 
        "name": "Milk Bar", 
        "address": "1840 Haight Street", 
        "latitude": 37.76941680908203, 
        "longitude": -122.45258331298828, 
        "city": "San Francisco", 
        "state": "CA", 
        "zipcode": 94117, 
        "phone": "415-387-6455", 
        "url": "milksf.com"
    }, 
    {
        "id": 58, 
        "name": "Oakland Metro", 
        "address": "522 2nd Street", 
        "latitude": 37.797076, 
        "longitude": -122.277815, 
        "city": "Oakland", 
        "state": "CA", 
        "zipcode": 94607, 
        "phone": "510-763-1146", 
        "url": "http://www.oaklandmetro.org"
    }
]